Accreditation code,Power station name,State,Postcode,Installed capacity (MW),Fuel Source (s),Accreditation start date,Approval date,lat,lng,lga,city,state_std,postcode,country,formatted_address,query_used
SRPXQLE8,"Laura Johnson Home, Townview",QLD,4825,0.2265,Solar,2024-10-15,2025-01-13,-20.7342326,139.5034862,Townview,Mount Isa City,Queensland,4825.0,Australia,"41 Clarke St, Townview QLD 4825, Australia","Laura Johnson Home, Townview, Queensland, Australia"
SRPYNS39,Leppington,NSW,2179,0.732,Solar,2024-11-22,2025-01-13,-33.9773022,150.7834354,Leppington,,New South Wales,2179.0,Australia,"Leppington NSW 2179, Australia","Leppington, New South Wales, Australia"
SRPYNS58,Quakers Hillside Care Community,NSW,2763,0.1996,Solar,2024-12-19,2025-01-13,-33.719511,150.891607,Quakers Hill,City of Blacktown,New South Wales,2763.0,Australia,"35 Hambledon Rd, Quakers Hill NSW 2763, Australia","Quakers Hillside Care Community, New South Wales, Australia"
SRPXVCN4,Rest Nominees,VIC,3008,0.1188,Solar,2024-09-20,2025-01-13,-36.9847807,143.3906074,,,Victoria,,Australia,"Victoria, Australia","Rest Nominees, Victoria, Australia"
SRPXQLF9,Retail First Mt Ommaney,QLD,4074,1.0004,Solar,2024-10-29,2025-01-13,-27.4852123,152.9924062,Toowong,Brisbane City,Queensland,4066.0,Australia,"Toowong QLD 4066, Australia","Retail First Mt Ommaney, Queensland, Australia"
SRPXQLG3,Woolworths HCFDC Heathwood,QLD,4110,1.6721,Solar,2024-12-12,2025-01-13,-27.6348312,152.9917087,Heathwood,Brisbane City,Queensland,,Australia,"Heathwood QLD, Australia","Woolworths HCFDC Heathwood, Queensland, Australia"
SRPVTA25,Woolworths Kings Meadow 7210,TAS,7249,0.2926,Solar,2024-11-18,2025-01-13,-41.4690796,147.1611718,Kings Meadows,Launceston City Council,Tasmania,7249.0,Australia,"Kings Meadows TAS 7249, Australia","Woolworths Kings Meadow 7210, Tasmania, Australia"
SRPVSAY5,CLAYTON CHURCH HOMES INC,SA,5113,0.1965,Solar,2024-12-11,2025-01-17,-30.0002315,136.2091547,,,South Australia,,Australia,"South Australia, Australia","CLAYTON CHURCH HOMES INC, South Australia, Australia"
SRPYNS57,Dalwood Children's Home,NSW,2092,0.2465,Solar,2024-12-19,2025-01-17,-32.6274801,151.4200826,Dalwood,Singleton Council,New South Wales,2335.0,Australia,"Dalwood NSW 2335, Australia","Dalwood Children's Home, New South Wales, Australia"
SRPVSAY1,Haighs Proprietary Limited,SA,5106,0.6265,Solar,2024-12-27,2025-01-17,-30.0002315,136.2091547,,,South Australia,,Australia,"South Australia, Australia","Haighs Proprietary Limited, South Australia, Australia"
SRPYNS56,Lindt & Sprungli (Australia) Pty Ltd,NSW,2765,1.0179,Solar,2024-12-17,2025-01-17,-31.2532183,146.921099,,,New South Wales,,Australia,"New South Wales, Australia","Lindt & Sprungli (Australia) Pty Ltd, New South Wales, Australia"
SRPVSAX9,Midfield Trading Solar W SGU,SA,5010,0.6443,Solar,2024-11-25,2025-01-17,-30.0002315,136.2091547,,,South Australia,,Australia,"South Australia, Australia","Midfield Trading Solar W SGU, South Australia, Australia"
SRPXVCG8,Wilandra Farms Clydebank,VIC,3851,0.155,Solar,2024-12-20,2025-01-17,-38.0413887,147.1644309,Clydebank,Wellington Shire,Victoria,3851.0,Australia,"83 Punt Ln, Clydebank VIC 3851, Australia","Wilandra Farms Clydebank, Victoria, Australia"
SRPYNS13,Balickera WPS,NSW,2324,3.1158,Solar,2024-11-05,2025-01-20,-32.660033,151.7971305,Balickera,Port Stephens Council,New South Wales,2324.0,Australia,"Balickera NSW 2324, Australia","Balickera WPS, New South Wales, Australia"
SRPVSAX0,The Creeks Pipeline Company Ltd,SA,5259,2.808,Solar,2024-12-01,2025-01-20,-35.2964192,139.0414808,Langhorne Creek,Alexandrina Council,South Australia,5255.0,Australia,"1507 Langhorne Creek Rd, Langhorne Creek SA 5255, Australia","The Creeks Pipeline Company Ltd, South Australia, Australia"
SRPVSAX2,Lai Industries,SA,5010,0.5445,Solar,2024-10-16,2025-01-23,-30.0002315,136.2091547,,,South Australia,,Australia,"South Australia, Australia","Lai Industries, South Australia, Australia"
SRPVSAY6,CLAYTON CHURCH HOMES INC,SA,5082,0.198,Solar,2024-12-11,2025-01-28,-30.0002315,136.2091547,,,South Australia,,Australia,"South Australia, Australia","CLAYTON CHURCH HOMES INC, South Australia, Australia"
SRPXVCP2,Kerang Solar Plant,VIC,3579,37.2874,Solar,2025-01-21,2025-01-28,-35.7350156,143.9202005,Kerang,Gannawarra Shire,Victoria,3579.0,Australia,"Kerang VIC 3579, Australia","Kerang Solar Plant, Victoria, Australia"
SRPVQLO6,Red Valley Farms,QLD,4871,0.3801,Solar,2024-11-11,2025-01-28,-15.8501908,144.8558809,Lakeland,Cook Shire,Queensland,4871.0,Australia,"Mulligan Hwy, Lakeland QLD 4871, Australia","Red Valley Farms, Queensland, Australia"
SRPVWAH2,Region Group Warnbro Central,WA,6169,0.5736,Solar,2024-11-21,2025-01-28,-32.3352786,115.759399,Warnbro,City of Rockingham,Western Australia,6169.0,Australia,"Warnbro WA 6169, Australia","Region Group Warnbro Central, Western Australia, Australia"
SRPXVCP4,Southern Steel,VIC,3175,0.2,Solar,2024-12-19,2025-01-28,-36.9847807,143.3906074,,,Victoria,,Australia,"Victoria, Australia","Southern Steel, Victoria, Australia"
SRPVSAY9,Southern Steel,SA,5095,0.2498,Solar,2024-12-19,2025-01-28,-35.1167257,138.4985418,Lonsdale,City of Onkaparinga,South Australia,5160.0,Australia,"69/71 O'Sullivan Beach Rd, Lonsdale SA 5160, Australia","Southern Steel, South Australia, Australia"
SRPVSAY7,CLAYTON CHURCH HOMES INC,SA,5072,0.2001,Solar,2024-12-11,2025-01-31,-30.0002315,136.2091547,,,South Australia,,Australia,"South Australia, Australia","CLAYTON CHURCH HOMES INC, South Australia, Australia"
SRPYNS53,AU186 Oakdale West 5B,NSW,2178,0.15,Solar,2024-12-16,2025-02-04,-34.0799357,150.5085739,Oakdale,Wollondilly Shire Council,New South Wales,2570.0,Australia,"Oakdale NSW 2570, Australia","AU186 Oakdale West 5B, New South Wales, Australia"
SRPVWAN2,Carosue,WA,6440,8.464,Solar,2024-12-24,2025-02-10,-30.1535719,122.3509579,Cundeelee,City of Kalgoorlie-Boulder,Western Australia,6434.0,Australia,"Kararri open cut Gold Mine WA, Cundeelee WA 6434, Australia","Carosue, Western Australia, Australia"
SRPVSAY8,Linfox Regency Park,SA,5010,0.7,Solar,2024-12-17,2025-02-10,-34.8556017,138.574467,Regency Park,City of Port Adelaide Enfield,South Australia,5010.0,Australia,"74 Gallipoli Dr, Regency Park SA 5010, Australia","Linfox Regency Park, South Australia, Australia"
SRPVWAN1,PWR Hybrid Cataby,WA,6507,9.558,Solar,2025-01-08,2025-02-10,-30.7358429,115.5402388,Cataby,Shire of Dandaragan,Western Australia,6507.0,Australia,"Cataby WA 6507, Australia","PWR Hybrid Cataby, Western Australia, Australia"
SRPYNS54,Blacktown Warehouse 1,NSW,2148,0.2,Solar,2024-12-17,2025-02-11,-33.7660982,150.9126927,Blacktown,City of Blacktown,New South Wales,2148.0,Australia,"Blacktown NSW 2148, Australia","Blacktown Warehouse 1, New South Wales, Australia"
SRPYNS55,Blacktown Warehouse 2,NSW,2148,0.2,Solar,2024-12-17,2025-02-11,-33.7660982,150.9126927,Blacktown,City of Blacktown,New South Wales,2148.0,Australia,"Blacktown NSW 2148, Australia","Blacktown Warehouse 2, New South Wales, Australia"
SRPVQLQ4,HCS,QLD,4014,0.438,Solar,2024-11-14,2025-02-11,-22.575197,144.0847926,,,Queensland,,Australia,"Queensland, Australia","HCS, Queensland, Australia"
SRPXQLF1,Intertek Townsville,QLD,4818,0.182,Solar,2024-10-18,2025-02-11,-19.2508005,146.7366226,Bohle,Townsville City,Queensland,4818.0,Australia,"9/23 Kelli St, Bohle QLD 4818, Australia","Intertek Townsville, Queensland, Australia"
SRPYNS65,ISLHD,NSW,2516,0.281,Solar,2025-01-13,2025-02-11,-34.4897544,150.8891201,Warrawong,Wollongong City Council,New South Wales,2505.0,Australia,"67-71 King Street District Executive Office Suite 2, Level 2, Warrawong NSW 2505, Australia","ISLHD, New South Wales, Australia"
SRPVWAN3,Region Group Treendale,WA,6233,0.34,Solar,2025-01-28,2025-02-11,-33.2767614,115.7249058,Australind,Shire of Harvey,Western Australia,6233.0,Australia,"Australind WA 6233, Australia","Region Group Treendale, Western Australia, Australia"
SRPYNS52,Woolworths DC Moorebank RDC 7950,NSW,2170,2.02,Solar,2024-12-12,2025-02-11,-33.9343989,150.9347027,Moorebank,Liverpool City Council,New South Wales,2170.0,Australia,"Moorebank NSW 2170, Australia","Woolworths DC Moorebank RDC 7950, New South Wales, Australia"
SRPYNS34,Bunnings Padstow,NSW,2211,0.28,Solar,2024-11-15,2025-02-19,-33.942003,151.035989,Padstow,Canterbury-Bankstown Council,New South Wales,2211.0,Australia,"88 Fairford Rd, Padstow NSW 2211, Australia","Bunnings Padstow, New South Wales, Australia"
SRPVSAX1,Five Star Seafoods,SA,5291,0.189,Solar,2024-10-14,2025-02-19,-38.0521157,140.7014793,Port Macdonnell,The District Council of Grant,South Australia,5291.0,Australia,"9/11 Standish St, Port Macdonnell SA 5291, Australia","Five Star Seafoods, South Australia, Australia"
SRPVSAW5,Morgan Sawmill,SA,5491,0.199,Solar,2024-08-13,2025-02-19,-33.2022303,138.5729349,Jamestown,Northern Areas Council,South Australia,5491.0,Australia,"4487 Wilkins Hwy, Jamestown SA 5491, Australia","Morgan Sawmill, South Australia, Australia"
SRPXQLG4,Northpoint Shopping Centre,QLD,4350,0.298,Solar,2024-12-16,2025-02-19,-27.5409914,151.9534338,Toowoomba City,Toowoomba Regional,Queensland,4350.0,Australia,"Cnr Ruthven &, Jones St, Toowoomba City QLD 4350, Australia","Northpoint Shopping Centre, Queensland, Australia"
SRPXQLH2,Ormeau,QLD,4208,0.659,Solar,2025-01-22,2025-02-19,-27.7861892,153.2591207,Ormeau,City of Gold Coast,Queensland,4208.0,Australia,"Ormeau QLD 4208, Australia","Ormeau, Queensland, Australia"
SRPYNS67,Symbion,NSW,2178,1.751,Solar,2025-01-31,2025-02-19,-31.2532183,146.921099,,,New South Wales,,Australia,"New South Wales, Australia","Symbion, New South Wales, Australia"
SRPYNS44,AFS Cadell Balranald,NSW,2715,4.827,Solar,2024-12-02,2025-02-21,-34.72095760000001,143.4989926,Balranald,Balranald Shire Council,New South Wales,2715.0,Australia,"Balranald NSW 2715, Australia","AFS Cadell Balranald, New South Wales, Australia"
SRPYNS62,AU544 Interlink Estate,NSW,2759,0.54,Solar,2024-12-29,2025-02-21,-31.2532183,146.921099,,,New South Wales,,Australia,"New South Wales, Australia","AU544 Interlink Estate, New South Wales, Australia"
SRPYNS77,BAE Williamtown,NSW,2318,0.416,Solar,2025-02-17,2025-02-21,-32.805961,151.837434,Williamtown,Port Stephens Council,New South Wales,2314.0,Australia,"Williamtown Dr, Williamtown NSW 2314, Australia","BAE Williamtown, New South Wales, Australia"
SRPYNS33,Bunnings Greenacre,NSW,2190,0.2,Solar,2024-11-15,2025-02-21,-33.90131909999999,151.0664275,Greenacre,Strathfield Municipal Council,New South Wales,2190.0,Australia,"Cnr Roberts Road &, Amarina Ave, Greenacre NSW 2190, Australia","Bunnings Greenacre, New South Wales, Australia"
SRPXQLG7,Caloundra NMI 31173199012,QLD,4551,0.228,Solar,2025-01-07,2025-02-21,-26.8043999,153.1254643,Caloundra,Sunshine Coast Regional,Queensland,4551.0,Australia,"Caloundra QLD 4551, Australia","Caloundra NMI 31173199012, Queensland, Australia"
SRPYNS68,HMC Capital Marsden Park,NSW,2765,0.24,Solar,2025-02-04,2025-02-21,-33.7121004,150.841952,Marsden Park,City of Blacktown,New South Wales,2765.0,Australia,"Marsden Park NSW 2765, Australia","HMC Capital Marsden Park, New South Wales, Australia"
SRPYNS69,HMC Glenmore Park Shopping Centre,NSW,2745,0.5,Solar,2025-02-06,2025-02-21,-33.7890704,150.668613,Glenmore Park,Penrith City Council,New South Wales,2745.0,Australia,"Glenmore Park Town Centre, Glenmore Park NSW 2745, Australia","HMC Glenmore Park Shopping Centre, New South Wales, Australia"
SRPVSAY3,Lambert Estate Wines Pty Ltd,SA,5353,0.223,Solar,2024-12-03,2025-02-21,-34.5140317,139.0357497,Angaston,The Barossa Council,South Australia,5353.0,Australia,"55 Long Gully Rd, Angaston SA 5353, Australia","Lambert Estate Wines Pty Ltd, South Australia, Australia"
SRPXVCI1,Martin Brower Dandenong,VIC,3175,0.625,Solar,2024-12-20,2025-02-21,-38.0052446,145.2457329,Dandenong,Greater Dandenong City,Victoria,3175.0,Australia,"81-97 Princes Hwy, Dandenong VIC 3175, Australia","Martin Brower Dandenong, Victoria, Australia"
SRPYNS50,Mt Annan Christian College,NSW,2567,0.22,Solar,2024-12-05,2025-02-21,-34.0487556,150.7760467,Mount Annan,Camden Council,New South Wales,2567.0,Australia,"347 Narellan Rd, Mount Annan NSW 2567, Australia","Mt Annan Christian College, New South Wales, Australia"
SRPYNS76,Scalabrini Chipping Norton,NSW,2170,0.335,Solar,2025-02-17,2025-02-21,-33.9222641,150.9515568,Chipping Norton,Liverpool City Council,New South Wales,2170.0,Australia,"199 Epsom Rd, Chipping Norton NSW 2170, Australia","Scalabrini Chipping Norton, New South Wales, Australia"
SRPXQLH1,Woolworths Darra 2695,QLD,4076,0.25,Solar,2025-01-20,2025-02-21,-27.5613337,152.9568256,Darra,Brisbane City,Queensland,4076.0,Australia,"Darra QLD 4076, Australia","Woolworths Darra 2695, Queensland, Australia"
SRPXQLH4,Woolworths Ingham 2723,QLD,4850,0.275,Solar,2025-02-04,2025-02-21,-18.6510538,146.1568444,Ingham,Hinchinbrook Shire,Queensland,4850.0,Australia,"Ingham QLD 4850, Australia","Woolworths Ingham 2723, Queensland, Australia"
SRPVSAZ1,Woolworths Seaford 5646,SA,5169,0.275,Solar,2025-02-04,2025-02-21,-35.1870338,138.4801681,Seaford,,South Australia,5169.0,Australia,"Seaford SA 5169, Australia","Woolworths Seaford 5646, South Australia, Australia"
SRPYNS28,MNCLHD Coffs Harbour Health Campus,NSW,2450,1.323,Solar,2024-11-18,2025-02-24,-30.3179835,153.0940034,Coffs Harbour,Coffs Harbour City Council,New South Wales,2450.0,Australia,"Coffs Harbour Hospital, 345 Pacific Hwy, Coffs Harbour NSW 2450, Australia","MNCLHD Coffs Harbour Health Campus, New South Wales, Australia"
SRPYNS61,Tip Top Chullora,NSW,2190,2.018,Solar,2024-12-20,2025-02-24,-33.8939895,151.0449829,Chullora,Canterbury-Bankstown Council,New South Wales,2190.0,Australia,"9 Muir Rd, Chullora NSW 2190, Australia","Tip Top Chullora, New South Wales, Australia"
SRPXQLC4,OZLEMFOODSWA,QLD,4207,0.443,Solar,2024-07-12,2025-03-05,-22.575197,144.0847926,,,Queensland,,Australia,"Queensland, Australia","OZLEMFOODSWA, Queensland, Australia"
SRPXVCP3,Somerville Gardens Care Community,VIC,3912,0.24,Solar,2024-12-16,2025-03-06,-38.224962,145.1669677,Somerville,Mornington Peninsula Shire,Victoria,3912.0,Australia,"22 Graf Rd, Somerville VIC 3912, Australia","Somerville Gardens Care Community, Victoria, Australia"
SRPXVCK5,Big W Mildura 560,VIC,3500,0.2,Solar,2025-02-25,2025-03-07,-34.2084827,142.1421312,Mildura,Mildura Rural City,Victoria,3500.0,Australia,"Fifteenth St, Mildura VIC 3500, Australia","Big W Mildura 560, Victoria, Australia"
SRPYNS73,Bunnings Maitland,NSW,2320,0.24,Solar,2025-02-14,2025-03-07,-32.725282,151.54119,Maitland,Maitland City Council,New South Wales,2320.0,Australia,"Cnr Bungaree St &, New England Hwy, Maitland NSW 2320, Australia","Bunnings Maitland, New South Wales, Australia"
SRPYNS41,Clean Peak Energy,NSW,2580,0.288,Solar,2024-12-17,2025-03-07,-33.8363771,151.2077989,North Sydney,North Sydney Council,New South Wales,2060.0,Australia,"21/201 Miller St, North Sydney NSW 2060, Australia","Clean Peak Energy, New South Wales, Australia"
SRPYNS71,Covenant Christian School,NSW,2085,0.181,Solar,2025-02-11,2025-03-07,-33.7141672,151.21495,Belrose,Northern Beaches Council,New South Wales,2085.0,Australia,"212 Forest Way, Belrose NSW 2085, Australia","Covenant Christian School, New South Wales, Australia"
SRPYNS70,EWH Food Services Kingsgrove,NSW,2208,0.325,Solar,2025-02-11,2025-03-07,-33.944212,151.0928129,Kingsgrove,Georges River Council,New South Wales,2208.0,Australia,"119 Vanessa St, Kingsgrove NSW 2208, Australia","EWH Food Services Kingsgrove, New South Wales, Australia"
SRPXQLH7,Frasers Woolworths Liquor Warehouse,QLD,4207,0.501,Solar,2025-02-14,2025-03-07,-22.575197,144.0847926,,,Queensland,,Australia,"Queensland, Australia","Frasers Woolworths Liquor Warehouse, Queensland, Australia"
SRPYNS75,"Scalabrini ""The Village"" Drummoyne",NSW,2047,0.235,Solar,2025-02-17,2025-03-07,-33.8577411,151.1472001,Drummoyne,City of Canada Bay Council,New South Wales,2047.0,Australia,"5 Mary St, Drummoyne NSW 2047, Australia","Scalabrini ""The Village"" Drummoyne, New South Wales, Australia"
SRPXNSX6,Woolworths Katoomba 1787,NSW,2780,0.275,Solar,2025-02-19,2025-03-07,-33.7124469,150.3117701,Katoomba,Blue Mountains City Council,New South Wales,2780.0,Australia,"Katoomba NSW 2780, Australia","Woolworths Katoomba 1787, New South Wales, Australia"
SRPXQLE1,Agile Energy,QLD,4208,0.2,Solar,2025-03-01,2025-03-17,-22.575197,144.0847926,,,Queensland,,Australia,"Queensland, Australia","Agile Energy, Queensland, Australia"
SRPXVCP0,Aussie Pride Produce,VIC,3634,0.148,Solar,2024-10-28,2025-03-17,-36.2712003,145.432345,Tallygaroopna,Greater Shepparton City,Victoria,3634.0,Australia,"1300 Goulburn Valley Hwy, Tallygaroopna VIC 3634, Australia","Aussie Pride Produce, Victoria, Australia"
SRPXVCO5,Campari,VIC,3026,0.65,Solar,2024-10-03,2025-03-17,-36.9847807,143.3906074,,,Victoria,,Australia,"Victoria, Australia","Campari, Victoria, Australia"
SRPVSAW7,Chep Pallets,SA,5110,0.252,Solar,2024-09-13,2025-03-17,-30.0002315,136.2091547,,,South Australia,,Australia,"South Australia, Australia","Chep Pallets, South Australia, Australia"
SRPXQLF6,"Heidke St, Avoca",QLD,4670,0.198,Solar,2024-10-30,2025-03-17,-24.886416,152.3194594,Avoca,Bundaberg Regional,Queensland,4670.0,Australia,"Heidke St, Avoca QLD 4670, Australia","Heidke St, Avoca, Queensland, Australia"
SRPYNS82,HNELHD Tamworth,NSW,2340,1.063,Solar,2025-02-26,2025-03-17,-31.09003839999999,150.9293323,Tamworth,Tamworth Regional Council,New South Wales,2340.0,Australia,"Tamworth NSW 2340, Australia","HNELHD Tamworth, New South Wales, Australia"
SRPYNS79,ISLHD Shoalhaven Hospital,NSW,2541,0.5,Solar,2025-02-17,2025-03-17,-35.0810677,150.4892292,,Shoalhaven City Council,New South Wales,,Australia,"Shoalhaven City Council, NSW, Australia","ISLHD Shoalhaven Hospital, New South Wales, Australia"
SRPYNS60,Kingspan Insulated Panels Pty Limited,NSW,2760,0.16,Solar,2024-12-20,2025-03-17,-33.7417031,150.7677957,Saint Marys,Penrith City Council,New South Wales,2760.0,Australia,"38-52 Dunheved Cct, St Marys NSW 2760, Australia","Kingspan Insulated Panels Pty Limited, New South Wales, Australia"
SRPXQLE5,Ornatas Tasmanian Lobster Hatchery,QLD,4816,0.158,Solar,2024-09-30,2025-03-17,-22.575197,144.0847926,,,Queensland,,Australia,"Queensland, Australia","Ornatas Tasmanian Lobster Hatchery, Queensland, Australia"
WD00SA24,Goyder South Wind Farm 1B,SA,5417,195.693,Wind,2024-11-11,2025-03-27,-34.0537842,138.1995591,,Wakefield Regional Council,South Australia,,Australia,"Goyder, SA, Australia","Goyder South Wind Farm 1B, South Australia, Australia"
SRPYNS08,Agile Energy,NSW,2250,0.348,Solar,2024-10-01,2025-03-31,-33.8666739,151.2096645,Sydney,Council of the City of Sydney,New South Wales,2000.0,Australia,"Level 16/9 Castlereagh St, Sydney NSW 2000, Australia","Agile Energy, New South Wales, Australia"
SRPVWAL0,ATCO Gas Australia Jandakot Microgrid,WA,6164,0.301,Solar,2021-03-12,2025-03-31,-32.1144409,115.8585662,Jandakot,City of Cockburn,Western Australia,6164.0,Australia,"81 Prinsep Rd, Jandakot WA 6164, Australia","ATCO Gas Australia Jandakot Microgrid, Western Australia, Australia"
SRPXQLH8,Caloundra NMI 3117361486,QLD,4551,0.348,Solar,2025-03-03,2025-03-31,-26.8043999,153.1254643,Caloundra,Sunshine Coast Regional,Queensland,4551,Australia,"Caloundra QLD 4551, Australia","Caloundra NMI 3117361486, Queensland, Australia"
SRPVWAM6,City of Stirling (Administration Centre) – Solar w SGU,WA,6021,0.47,Solar,2024-12-04,2025-03-31,-31.89062779999999,115.816684,,City of Stirling,Western Australia,,Australia,"Stirling, WA, Australia","City of Stirling (Administration Centre) – Solar w SGU, Western Australia, Australia"
SRPVNSY6,Concord Hospital,NSW,2138,0.314,Solar,2024-11-04,2025-03-31,-33.8371192,151.0941647,Concord,City of Canada Bay Council,New South Wales,2139.0,Australia,"Hospital Rd, Concord NSW 2139, Australia","Concord Hospital, New South Wales, Australia"
SRPXQLG1,CQFMS,QLD,4740,0.307,Solar,2024-11-29,2025-03-31,-22.575197,144.0847926,,,Queensland,,Australia,"Queensland, Australia","CQFMS, Queensland, Australia"
SRPYNS84,Mirvac Switchyards Building 2,NSW,2144,0.2,Solar,2025-03-05,2025-03-31,-33.86255,151.207935,Sydney,Council of the City of Sydney,New South Wales,2000.0,Australia,"Level 28/200 George St, Sydney NSW 2000, Australia","Mirvac Switchyards Building 2, New South Wales, Australia"
SRPVSAW3,Seaford Central,SA,5169,0.465,Solar,2025-02-05,2025-03-31,-35.1892961,138.4791679,Seaford,City of Onkaparinga,South Australia,5169.0,Australia,"108 Commercial Rd, Seaford SA 5169, Australia","Seaford Central, South Australia, Australia"
SRPXQLG6,Stockland Rockhampton Shopping Centre,QLD,4701,2.673,Solar,2025-01-16,2025-03-31,-23.3544543,150.5224655,Park Avenue,Rockhampton Regional,Queensland,4701.0,Australia,"120-331 Yaamba Rd, Park Avenue QLD 4701, Australia","Stockland Rockhampton Shopping Centre, Queensland, Australia"
SRPXQLE0,The Good Shepherd Home,QLD,4814,0.314,Solar,2025-02-27,2025-03-31,-19.3099296,146.7633243,Annandale,Townsville City,Queensland,4814.0,Australia,"Good Shepherd Nursing Home, 565 University Rd, Annandale QLD 4814, Australia","The Good Shepherd Home, Queensland, Australia"
SRPXVCI5,Waverley Valley Care Community,VIC,3150,0.15,Solar,2025-02-19,2025-03-31,-37.869459,145.1589778,Glen Waverley,City of Monash,Victoria,3150.0,Australia,"29-33 Chesterville Rd, Glen Waverley VIC 3150, Australia","Waverley Valley Care Community, Victoria, Australia"
SRPYNS81,B&J Greenacre,NSW,2190,0.4,Solar,2025-02-28,2025-04-01,-33.9041635,151.072249,Greenacre,Strathfield Municipal Council,New South Wales,2190.0,Australia,"43 Wentworth St, Greenacre NSW 2190, Australia","B&J Greenacre, New South Wales, Australia"
SRPYNS32,Bunnings Eastgardens,NSW,2036,0.34,Solar,2024-11-15,2025-04-01,-33.9491679,151.2247949,Hillsdale,Bayside Council,New South Wales,2036.0,Australia,"140-148 Denison St, Hillsdale NSW 2036, Australia","Bunnings Eastgardens, New South Wales, Australia"
SRPXVCQ1,CH3059 Midwest Logistics Hub (INGH1),VIC,3029,1.0,Solar,2025-03-11,2025-04-01,-37.822881,144.7534421,Truganina,Wyndham City,Victoria,3029.0,Australia,"500 Dohertys Rd, Truganina VIC 3029, Australia","CH3059 Midwest Logistics Hub (INGH1), Victoria, Australia"
SRPXVCK3,"Macaulay Rd, Kensington",VIC,3031,0.198,Solar,2025-03-05,2025-04-01,-37.794511,144.9307387,Kensington,Melbourne City,Victoria,3031.0,Australia,"Macaulay Rd, Kensington VIC 3031, Australia","Macaulay Rd, Kensington, Victoria, Australia"
SRPVWAN0,MF Logistics Bvd,WA,6107,0.781,Solar,2024-12-12,2025-04-01,-32.0093962,115.9786633,Perth,,Western Australia,6107.0,Australia,"Logistics Bvd, Perth WA 6107, Australia","MF Logistics Bvd, Western Australia, Australia"
SRPYNS37,Mirvac Switchyards Building 6,NSW,2144,0.2,Solar,2025-02-25,2025-04-01,-33.86255,151.207935,Sydney,Council of the City of Sydney,New South Wales,2000.0,Australia,"Level 28/200 George St, Sydney NSW 2000, Australia","Mirvac Switchyards Building 6, New South Wales, Australia"
SRPXQL34,Oxley Grove Care Community,QLD,4077,0.278,Solar,2025-02-19,2025-04-02,-27.5782642,152.983536,Durack,Brisbane City,Queensland,4077.0,Australia,"276 Blunder Rd, Durack QLD 4077, Australia","Oxley Grove Care Community, Queensland, Australia"
SRPXNSW7,Stubbo,NSW,2852,520.393,Solar,2024-12-20,2025-04-02,-32.2970664,149.5332444,Stubbo,Mid-Western Regional Council,New South Wales,2852.0,Australia,"Stubbo NSW 2852, Australia","Stubbo, New South Wales, Australia"
SRPXQLB7,123 Sippy Downs,QLD,4556,0.2,Solar,2025-02-28,2025-04-09,-26.7139704,153.0617915,Sippy Downs,Sunshine Coast Regional,Queensland,4556.0,Australia,"123 Sippy Downs Dr, Sippy Downs QLD 4556, Australia","123 Sippy Downs, Queensland, Australia"
SRPXQLH5,Agile Energy,QLD,4220,0.152,Solar,2025-01-28,2025-04-09,-22.575197,144.0847926,,,Queensland,,Australia,"Queensland, Australia","Agile Energy, Queensland, Australia"
SRPYNS72,Baked Provisions Sydney,NSW,2170,0.2,Solar,2025-02-14,2025-04-09,-33.9365718,150.8856378,Prestons,Liverpool City Council,New South Wales,2170.0,Australia,"29 Lyn Parade, Prestons NSW 2170, Australia","Baked Provisions Sydney, New South Wales, Australia"
SRPXVCQ3,Chadstone Freshfood,VIC,3145,0.733,Solar,2025-03-27,2025-04-09,-37.8810091,145.0959519,Chadstone,City of Monash,Victoria,3148.0,Australia,"Chadstone VIC 3148, Australia","Chadstone Freshfood, Victoria, Australia"
SRPYNS86,Mcdonald College,NSW,2137,0.253,Solar,2025-03-20,2025-04-09,-33.8584442,151.0866883,North Strathfield,City of Canada Bay Council,New South Wales,2137.0,Australia,"17 George St, North Strathfield NSW 2137, Australia","Mcdonald College, New South Wales, Australia"
SRPXVCI2,Moe Newborough,VIC,3825,0.189,Solar,2025-01-29,2025-04-09,-38.18429440000001,146.2544694,Moe,,Victoria,3825.0,Australia,"Moe VIC 3825, Australia","Moe Newborough, Victoria, Australia"
SRPYNS83,Nepean Hospital,NSW,2747,0.52,Solar,2025-03-14,2025-04-09,-33.7592973,150.7137103,Kingswood,Penrith City Council,New South Wales,2747.0,Australia,"Somerset St, Kingswood NSW 2747, Australia","Nepean Hospital, New South Wales, Australia"
SRPXQLH0,PFI Darra,QLD,4076,0.246,Solar,2025-01-16,2025-04-09,-27.5757932,152.9560492,Darra,Brisbane City,Queensland,4076.0,Australia,"Building 5/36 Archerfield Rd, Darra QLD 4076, Australia","PFI Darra, Queensland, Australia"
SRPYNS64,REMONDIS,NSW,2322,0.551,Solar,2025-01-11,2025-04-09,-31.2532183,146.921099,,,New South Wales,,Australia,"New South Wales, Australia","REMONDIS, New South Wales, Australia"
SRPXQLI3,Story Fresh Produce,QLD,4358,0.201,Solar,2025-03-24,2025-04-09,-27.7134338,151.8781146,Cambooya,Toowoomba Regional,Queensland,4358.0,Australia,"363 Cambooya Connection Rd, Cambooya QLD 4358, Australia","Story Fresh Produce, Queensland, Australia"
SRPXQLI2,TIP TOP Carrara,QLD,4211,0.221,Solar,2025-03-26,2025-04-09,-28.0354868,153.3564211,Carrara,City of Gold Coast,Queensland,4211.0,Australia,"25 Keller Cres, Carrara QLD 4211, Australia","TIP TOP Carrara, Queensland, Australia"
SRPXVCP7,Truganina,VIC,3029,0.293,Solar,2025-02-26,2025-04-09,-37.8248334,144.7486991,Truganina,,Victoria,3029.0,Australia,"Truganina VIC 3029, Australia","Truganina, Victoria, Australia"
SRPYNS59,UPS SCS Australia,NSW,2175,0.4,Solar,2024-12-20,2025-04-09,-31.2532183,146.921099,,,New South Wales,,Australia,"New South Wales, Australia","UPS SCS Australia, New South Wales, Australia"
SRPXVCJ7,Petstock DC Avalon,VIC,3212,0.4,Solar,2025-02-19,2025-04-10,-38.0190235,144.4834572,Avalon,Greater Geelong City,Victoria,3212.0,Australia,"258 Beach Rd, Avalon VIC 3212, Australia","Petstock DC Avalon, Victoria, Australia"
SRPVSAZ0,REMONDIS,SA,5013,0.397,Solar,2025-01-11,2025-04-10,-30.0002315,136.2091547,,,South Australia,,Australia,"South Australia, Australia","REMONDIS, South Australia, Australia"
SRPVSAZ7,BAE Systems Edinburgh Parks,SA,5111,0.162,Solar,2025-04-02,2025-04-11,-34.738053,138.6332525,Edinburgh,City of Salisbury,South Australia,5111.0,Australia,"Edinburgh SA 5111, Australia","BAE Systems Edinburgh Parks, South Australia, Australia"
SRPXVCQ2,Latrobe Leisure Morwell,VIC,3840,0.214,Solar,2025-03-24,2025-04-14,-38.2332555,146.4051695,Morwell,Latrobe City,Victoria,3840.0,Australia,"45 McDonald St, Morwell VIC 3840, Australia","Latrobe Leisure Morwell, Victoria, Australia"
SRPXQLB1,Acacia Ridge,QLD,4110,0.444,Solar,2025-02-20,2025-04-15,-27.5873761,153.0270551,Acacia Ridge,Brisbane City,Queensland,4110.0,Australia,"Acacia Ridge QLD 4110, Australia","Acacia Ridge, Queensland, Australia"
SRPXVCQ5,GPE_LYKA WELLNESS,VIC,3175,0.499,Solar,2025-04-02,2025-04-15,-36.9847807,143.3906074,,,Victoria,,Australia,"Victoria, Australia","GPE_LYKA WELLNESS, Victoria, Australia"
SRPXVCP8,Greenlink 7,VIC,3977,0.42,Solar,2025-02-28,2025-04-15,-36.9847807,143.3906074,,,Victoria,,Australia,"Victoria, Australia","Greenlink 7, Victoria, Australia"
SRPYNS88,IBIS Care,NSW,2223,0.323,Solar,2025-03-23,2025-04-15,-33.9819652,151.1104994,Blakehurst,Georges River Council,New South Wales,2221.0,Australia,"24 Cheddar St, Blakehurst NSW 2221, Australia","IBIS Care, New South Wales, Australia"
SRPYNS66,Agile Energy,NSW,2015,0.361,Solar,2025-01-28,2025-04-17,-33.8666739,151.2096645,Sydney,Council of the City of Sydney,New South Wales,2000.0,Australia,"Level 16/9 Castlereagh St, Sydney NSW 2000, Australia","Agile Energy, New South Wales, Australia"
SRPXQLG8,Cairns Colonial Club,QLD,4870,0.208,Solar,2025-02-10,2025-04-17,-16.9115466,145.7480236,Manunda,Cairns Regional,Queensland,4870.0,Australia,"18-26 Cannon St, Manunda QLD 4870, Australia","Cairns Colonial Club, Queensland, Australia"
SRPYNS93,CALABRIA FAMILY WINES PTY LTD,NSW,2680,1.032,Solar,2025-04-02,2025-04-17,-34.2769501,146.0286805,Griffith,Griffith City Council,New South Wales,2680.0,Australia,"1283 Brayne Rd, Griffith NSW 2680, Australia","CALABRIA FAMILY WINES PTY LTD, New South Wales, Australia"
SRPVSAZ4,Pikes Wines Pty Ltd,SA,5453,0.2,Solar,2025-04-01,2025-04-17,-33.8873634,138.674942,Sevenhill,Clare and Gilbert Valleys Council,South Australia,5453.0,Australia,"233 Polish Hill Rd, Sevenhill SA 5453, Australia","Pikes Wines Pty Ltd, South Australia, Australia"
SRPVWAN4,Region Group Currambine,WA,6028,1.48,Solar,2025-01-29,2025-04-17,-31.7350917,115.7451643,Currambine,City of Joondalup,Western Australia,6028.0,Australia,"Currambine WA 6028, Australia","Region Group Currambine, Western Australia, Australia"
SRPXQLH3,Cubbie,QLD,4486,3.44,Solar,2025-01-29,2025-04-22,-22.575197,144.0847926,,,Queensland,,Australia,"Queensland, Australia","Cubbie, Queensland, Australia"
SRPXNSU4,DHL Skyline,NSW,2171,1.0,Solar,2025-02-25,2025-04-22,-31.2532183,146.921099,,,New South Wales,,Australia,"New South Wales, Australia","DHL Skyline, New South Wales, Australia"
SRPXVCP5,Hendys Road Numurkah,VIC,3636,6.162,Solar,2025-02-04,2025-04-22,-36.0667307,145.4784347,Numurkah,Moira Shire,Victoria,3636.0,Australia,"Hendys Rd, Numurkah VIC 3636, Australia","Hendys Road Numurkah, Victoria, Australia"
SRPVSAZ5,Woolworths Golden Grove (The Stables) 5632,SA,5125,0.2,Solar,2025-03-27,2025-04-22,-34.7904698,138.6975102,Golden Grove,City of Tea Tree Gully,South Australia,5125.0,Australia,"Golden Grove SA 5125, Australia","Woolworths Golden Grove (The Stables) 5632, South Australia, Australia"
SRPYNSA0,Gregory Hills Hotel,NSW,2557,0.2,Solar,2025-04-15,2025-04-23,-34.0225391,150.7655018,Gregory Hills,Camden Council,New South Wales,2557.0,Australia,"Central Hills Dr, Gregory Hills NSW 2557, Australia","Gregory Hills Hotel, New South Wales, Australia"
SRPVSAZ2,Moyhall,SA,5271,8.203,Solar,2025-03-05,2025-04-24,-37.0326147,140.6661117,Moyhall,Naracoorte Lucindale Council,South Australia,5271.0,Australia,"Moyhall SA 5271, Australia","Moyhall, South Australia, Australia"
SRPXQLI8,AU371,QLD,4178,0.291,Solar,2025-04-03,2025-05-02,-22.575197,144.0847926,,,Queensland,,Australia,"Queensland, Australia","AU371, Queensland, Australia"
SRPYNS90,Kerarbury Station Almond Orchard,NSW,2706,6.004,Solar,2025-03-27,2025-05-02,-34.5682529,145.9987084,Darlington Point,Murrumbidgee Council,New South Wales,2706.0,Australia,"Kerarbury St, Darlington Point NSW 2706, Australia","Kerarbury Station Almond Orchard, New South Wales, Australia"
SRPVSAZ3,Steel Building Systems,SA,5113,0.2,Solar,2025-03-24,2025-05-02,-30.0002315,136.2091547,,,South Australia,,Australia,"South Australia, Australia","Steel Building Systems, South Australia, Australia"
SRPYNS97,Temperzone,NSW,2148,0.36,Solar,2025-04-10,2025-05-02,-32.9126676,151.7325452,Newcastle,Newcastle City Council,New South Wales,2300.0,Australia,"14 Carnegie Pl Seven Hills West, Newcastle NSW 2300, Australia","Temperzone, New South Wales, Australia"
SRPXQLG9,Cowboys HQ,QLD,4810,0.264,Solar,2025-01-17,2025-05-14,-19.259016,146.8170013,Townsville City,Townsville City,Queensland,4810.0,Australia,"313-335 Flinders St, Townsville City QLD 4810, Australia","Cowboys HQ, Queensland, Australia"
SRPYNS99,DUX MANUFACTURING LIMITED,NSW,2577,0.4,Solar,2025-04-11,2025-05-14,-31.2532183,146.921099,,,New South Wales,,Australia,"New South Wales, Australia","DUX MANUFACTURING LIMITED, New South Wales, Australia"
SRPXVCH9,GPT Highpoint DJ,VIC,3032,0.47,Solar,2024-12-05,2025-05-14,-37.77376539999999,144.8896643,Maribyrnong,Maribyrnong City,Victoria,3032.0,Australia,"120-200 Rosamond Rd, Maribyrnong VIC 3032, Australia","GPT Highpoint DJ, Victoria, Australia"
SRPXQLJ2,Mercy Place Cairns,QLD,4870,0.279,Solar,2025-04-30,2025-05-14,-16.929982,145.7492566,Westcourt,Cairns Regional,Queensland,4870.0,Australia,"257 Gatton St, Westcourt QLD 4870, Australia","Mercy Place Cairns, Queensland, Australia"
SRPXQLE4,Mirani Water Recycling Facility,QLD,4754,0.17,Solar,2024-11-29,2025-05-14,-21.1586195,148.8623419,Mirani,Mackay Regional,Queensland,4754.0,Australia,"Mirani QLD 4754, Australia","Mirani Water Recycling Facility, Queensland, Australia"
SRPYNSA3,OPAL Bankstown Terrace Care Community,NSW,2200,0.239,Solar,2025-04-23,2025-05-14,-33.9329353,151.02629,Bankstown,Canterbury-Bankstown Council,New South Wales,2200.0,Australia,"14/20 Eldridge Rd, Bankstown NSW 2200, Australia","OPAL Bankstown Terrace Care Community, New South Wales, Australia"
SRPYNSA4,OPAL Berkeley Care Community,NSW,2261,0.169,Solar,2025-04-23,2025-05-14,-34.476942,150.838983,Berkeley,Wollongong City Council,New South Wales,2506.0,Australia,"Berkeley NSW 2506, Australia","OPAL Berkeley Care Community, New South Wales, Australia"
SRPXVCQ4,UCS Pakenham,VIC,3810,0.177,Solar,2025-04-02,2025-05-14,-38.0947162,145.470796,Pakenham,Cardinia Shire,Victoria,3810.0,Australia,"111 National Ave, Pakenham VIC 3810, Australia","UCS Pakenham, Victoria, Australia"
SRPVWAN6,Armadale Shopping Centre 576kW,WA,6112,0.576,Solar,2025-04-14,2025-05-15,-32.1515645,116.0140386,Armadale,City of Armadale,Western Australia,6112.0,Australia,"Armadale WA 6112, Australia","Armadale Shopping Centre 576kW, Western Australia, Australia"
SRPVWAN7,Armadale Shopping Centre 700kW,WA,6112,0.704,Solar,2025-04-14,2025-05-15,-32.1515645,116.0140386,Armadale,City of Armadale,Western Australia,6112.0,Australia,"Armadale WA 6112, Australia","Armadale Shopping Centre 700kW, Western Australia, Australia"
SRPYNS74,AU876 Rosehill Industrial Estate,NSW,2142,0.764,Solar,2025-02-14,2025-05-15,-33.8239653,151.0212029,Rosehill,City of Parramatta Council,New South Wales,2142.0,Australia,"Rosehill NSW 2142, Australia","AU876 Rosehill Industrial Estate, New South Wales, Australia"
SRPYNSA6,Mayfield Aged Care,NSW,2304,0.192,Solar,2025-04-28,2025-05-15,-32.8950287,151.7406396,Mayfield,Newcastle City Council,New South Wales,2304.0,Australia,"115 Crebert St, Mayfield NSW 2304, Australia","Mayfield Aged Care, New South Wales, Australia"
SRPYNS95,Westrac Tomago,NSW,2322,1.663,Solar,2025-04-08,2025-05-15,-32.8235341,151.7517645,Tomago,Port Stephens Council,New South Wales,2287.0,Australia,"Gate 3/1 WesTrac Drive, Tomago NSW 2287, Australia","Westrac Tomago, New South Wales, Australia"
SRPYNS63,Wollar Solar Farm,NSW,2850,346.248,Solar,2025-01-17,2025-05-15,-32.407631,149.9407365,Wollar,Mid-Western Regional Council,New South Wales,2850.0,Australia,"HWVR+2F, Wollar NSW 2850, Australia","Wollar Solar Farm, New South Wales, Australia"
SRPXQLI9,NEUMANN STEEL 1,QLD,4223,1.517,Solar,2025-04-22,2025-05-20,-28.1480302,153.4690662,Currumbin,City of Gold Coast,Queensland,4223.0,Australia,"13 Nuban St, Currumbin QLD 4223, Australia","NEUMANN STEEL 1, Queensland, Australia"
SRPYNSA8,St Gregory's College Hall,NSW,2557,0.199,Solar,2025-05-02,2025-05-20,-34.0396755,150.7871124,Gregory Hills,City of Campbelltown,New South Wales,2557.0,Australia,"100 Badgally Rd, Gregory Hills NSW 2557, Australia","St Gregory's College Hall, New South Wales, Australia"
BEBGNS39,St Marys Sewage Treatment,NSW,2760,1.7,Sewage Gas and Biomass-Based Components of Sewage,2025-01-09,2025-05-20,-33.769979,150.7734575,Saint Marys,,New South Wales,2760.0,Australia,"St Marys NSW 2760, Australia","St Marys Sewage Treatment, New South Wales, Australia"
SRPYNSA7,Wentworthville Leagues Club Ltd,NSW,2145,0.23,Solar,2025-05-02,2025-05-20,-33.8072579,150.9692876,Wentworthville,,New South Wales,2145.0,Australia,"Wentworthville NSW 2145, Australia","Wentworthville Leagues Club Ltd, New South Wales, Australia"
SRPYNSB1,Wentworthville Leagues Club Ltd System 2,NSW,2145,0.23,Solar,2025-05-05,2025-05-20,-33.8072579,150.9692876,Wentworthville,,New South Wales,2145.0,Australia,"Wentworthville NSW 2145, Australia","Wentworthville Leagues Club Ltd System 2, New South Wales, Australia"
BEBGWA14,Westpork (Moora),WA,6507,0.63,Agricultural Waste,2024-12-10,2025-05-21,-30.4974591,115.8798905,Dandaragan,Shire of Dandaragan,Western Australia,6507.0,Australia,"Dandaragan WA 6507, Australia","Westpork (Moora), Western Australia, Australia"
SRPXQLJ0,Across The Waves Sports Club Bundaberg,QLD,4670,0.45,Solar,2025-04-30,2025-05-22,-24.890253,152.3469848,Norville,Bundaberg Regional,Queensland,4670.0,Australia,"1 Miller St, Norville QLD 4670, Australia","Across The Waves Sports Club Bundaberg, Queensland, Australia"
SRPXQLJ3,HomeCo Toowoomba,QLD,4350,0.14,Solar,2025-05-01,2025-05-22,-27.5979538,151.9504709,Kearneys Spring,Toowoomba Regional,Queensland,4350.0,Australia,"471 Hume St, Kearneys Spring QLD 4350, Australia","HomeCo Toowoomba, Queensland, Australia"
SRPXQLJ5,HomeCo Upper Coomera,QLD,4209,0.23,Solar,2025-05-14,2025-05-22,-27.8495154,153.301637,Upper Coomera,City of Gold Coast,Queensland,4209.0,Australia,"1 Commercial St, Upper Coomera QLD 4209, Australia","HomeCo Upper Coomera, Queensland, Australia"
SRPXVCR1,PLASTIC SOLUTIONS,VIC,3179,0.359,Solar,2025-04-22,2025-05-26,-36.9847807,143.3906074,,,Victoria,,Australia,"Victoria, Australia","PLASTIC SOLUTIONS, Victoria, Australia"
WD00QL09,Clarke Creek Wind Farm,QLD,4705,450.0,Wind,2025-01-07,2025-05-28,-22.8504461,149.4532524,Clarke Creek,Livingstone Shire,Queensland,4705.0,Australia,"Clarke Creek QLD 4705, Australia","Clarke Creek Wind Farm, Queensland, Australia"
SRPXQLJ1,Big Dog Pet Foods,QLD,4504,0.662,Solar,2025-04-30,2025-05-29,-27.1955182,152.9994427,Narangba,City of Moreton Bay,Queensland,4504.0,Australia,"106 Potassium St, Narangba QLD 4504, Australia","Big Dog Pet Foods, Queensland, Australia"
SRPXQLI4,Doomadgee Solar Farm Stage 2,QLD,4830,0.304,Solar,2025-03-17,2025-05-29,-17.9399667,138.8292283,Doomadgee,Doomadgee Aboriginal Shire,Queensland,4830.0,Australia,"Doomadgee QLD 4830, Australia","Doomadgee Solar Farm Stage 2, Queensland, Australia"
SRPXVCP6,MOKOAN SOLAR FARM,VIC,3673,57.803,Solar,2025-02-25,2025-05-29,-36.4875195,146.1226338,Winton,Benalla Rural City,Victoria,3673.0,Australia,"Lee Rd, Winton VIC 3673, Australia","MOKOAN SOLAR FARM, Victoria, Australia"
SRPXQLJ7,Plainland,QLD,4341,0.428,Solar,2025-05-08,2025-05-29,-27.5679729,152.4220619,Plainland,Lockyer Valley Regional,Queensland,4341.0,Australia,"Plainland QLD 4341, Australia","Plainland, Queensland, Australia"
SRPXQLJ6,Homeco Tingalpa,QLD,4173,0.204,Solar,2025-05-14,2025-05-30,-27.4772349,153.1397085,Tingalpa,Brisbane City,Queensland,4173.0,Australia,"261 New Cleveland Rd, Tingalpa QLD 4173, Australia","Homeco Tingalpa, Queensland, Australia"
SRPVNT81,Palmerston Golf & Country Club,NT,830,0.2,Solar,2025-03-21,2025-05-30,-12.4803879,130.9758522,Palmerston City,Palmerston Municipality,Northern Territory,830.0,Australia,"University Ave &, Dwyer Cct, Palmerston City NT 0830, Australia","Palmerston Golf & Country Club, Northern Territory, Australia"
SRPVSAZ6,Tip Top Dry Creek,SA,5094,0.918,Solar,2025-04-10,2025-05-30,-34.840884,138.5914251,Dry Creek,City of Port Adelaide Enfield,South Australia,5094.0,Australia,"29/43 Gum Ave, Dry Creek SA 5094, Australia","Tip Top Dry Creek, South Australia, Australia"
SRPXSA02,Woolworths Kingston 7003,TAS,7050,0.338,Solar,2025-05-26,2025-06-03,-42.9757956,147.3078991,Kingston,,Tasmania,7050.0,Australia,"Kingston TAS 7050, Australia","Woolworths Kingston 7003, Tasmania, Australia"
SRPXQLK0,Americold Hemmant 2,QLD,4174,0.311,Solar,2025-05-22,2025-06-10,-27.4445601,153.1170123,Hemmant,Brisbane City,Queensland,4174.0,Australia,"1217 Lytton Rd, Hemmant QLD 4174, Australia","Americold Hemmant 2, Queensland, Australia"
SRPXQLI5,Brisbane Lions,QLD,4300,0.799,Solar,2025-04-14,2025-06-10,-27.4704528,153.0260341,Brisbane,,Queensland,,Australia,"Brisbane QLD, Australia","Brisbane Lions, Queensland, Australia"
SRPXQLK1,Cairns Aquarium,QLD,4870,0.4,Solar,2025-05-26,2025-06-10,-16.9184171,145.7738313,Cairns City,Cairns Regional,Queensland,4870.0,Australia,"5 Florence St, Cairns City QLD 4870, Australia","Cairns Aquarium, Queensland, Australia"
SRPYNSB3,Clean Peak Energy,NSW,2830,0.37,Solar,2025-05-19,2025-06-10,-33.8363771,151.2077989,North Sydney,North Sydney Council,New South Wales,2060.0,Australia,"21/201 Miller St, North Sydney NSW 2060, Australia","Clean Peak Energy, New South Wales, Australia"
SRPVAC44,CSIRO,ACT,2620,1.269,Solar,2024-08-20,2025-06-10,-35.2770618,149.1447532,Campbell,,Australian Capital Territory,2612.0,Australia,"30 Limestone Ave, Campbell ACT 2612, Australia","CSIRO, Australian Capital Territory, Australia"
SRPXVCR4,HomeCo Keysborough,VIC,3173,0.152,Solar,2025-05-14,2025-06-10,-37.99228340000001,145.1467055,Keysborough,Greater Dandenong City,Victoria,3173.0,Australia,"466 Cheltenham Rd, Keysborough VIC 3173, Australia","HomeCo Keysborough, Victoria, Australia"
SRPYNS89,STM Smeaton Grange – Solar w SGU – NSW,NSW,2567,0.233,Solar,2025-03-26,2025-06-10,-34.0321106,150.7522053,Smeaton Grange,Camden Council,New South Wales,2567.0,Australia,"20-26 Dunn Rd, Smeaton Grange NSW 2567, Australia","STM Smeaton Grange – Solar w SGU – NSW, New South Wales, Australia"
SRPYNSA9,The Big Banana Coffs Harbour,NSW,2450,0.127,Solar,2025-05-02,2025-06-10,-30.2748938,153.1337285,Coffs Harbour,Coffs Harbour City Council,New South Wales,2450.0,Australia,"351 Pacific Hwy, Coffs Harbour NSW 2450, Australia","The Big Banana Coffs Harbour, New South Wales, Australia"
SRPYNSC1,Uniting Farmborough,NSW,2526,0.15,Solar,2025-05-26,2025-06-10,-34.4563713,150.8296356,Unanderra,Wollongong City Council,New South Wales,2526.0,Australia,"91 Waples Rd, Unanderra NSW 2526, Australia","Uniting Farmborough, New South Wales, Australia"
SRPYNSB2,Synnex Australia,NSW,2141,0.474,Solar,2025-04-24,2025-06-19,-31.2532183,146.921099,,,New South Wales,,Australia,"New South Wales, Australia","Synnex Australia, New South Wales, Australia"
SRPXQLI6,Associated Grains Dalby,QLD,4405,0.348,Solar,2025-03-31,2025-06-25,-27.1836391,151.2309802,Dalby,Western Downs Regional,Queensland,4405.0,Australia,"7 Byrne St, Dalby QLD 4405, Australia","Associated Grains Dalby, Queensland, Australia"
SRPYNSA1,Clean Peak Energy,NSW,2731,7.528,Solar,2025-04-15,2025-06-25,-33.8363771,151.2077989,North Sydney,North Sydney Council,New South Wales,2060.0,Australia,"21/201 Miller St, North Sydney NSW 2060, Australia","Clean Peak Energy, New South Wales, Australia"
SRPYNSA5,Kootingal Solar Farm,NSW,2352,6.048,Solar,2025-04-28,2025-06-25,-31.057358,151.0541094,Kootingal,Tamworth Regional Council,New South Wales,2352.0,Australia,"Kootingal NSW 2352, Australia","Kootingal Solar Farm, New South Wales, Australia"
SRPXQLI0,IBIS,QLD,4876,0.151,Solar,2025-04-28,2025-06-26,-22.575197,144.0847926,,,Queensland,,Australia,"Queensland, Australia","IBIS, Queensland, Australia"
SRPXVCR0,Puopolo Smallgoods,VIC,3026,0.309,Solar,2025-04-16,2025-06-26,-37.8252276,144.7866402,Laverton North,Wyndham City,Victoria,3026.0,Australia,"118-124 Fitzgerald Rd, Laverton North VIC 3026, Australia","Puopolo Smallgoods, Victoria, Australia"
SRPXQLK5,Alsco Salisbury,QLD,4107,0.3,Solar,2025-06-11,2025-06-27,-27.5480816,153.0265229,Salisbury,Brisbane City,Queensland,4107.0,Australia,"120 Assembly St, Salisbury QLD 4107, Australia","Alsco Salisbury, Queensland, Australia"
SRPYNSC5,Bunnings Penrith,NSW,2750,0.37,Solar,2025-05-28,2025-06-27,-33.7698099,150.6685482,Penrith,Penrith City Council,New South Wales,2750.0,Australia,"2745 Wolseley St, Penrith NSW 2750, Australia","Bunnings Penrith, New South Wales, Australia"
SRPXVCR2,Cherry Lane,VIC,3026,0.42,Solar,2025-05-21,2025-06-27,-37.8372157,144.7964256,Laverton North,Wyndham City,Victoria,3026.0,Australia,"Cherry Ln, Laverton North VIC 3026, Australia","Cherry Lane, Victoria, Australia"
SRPXVCR7,Coolaroo,VIC,3048,0.7,Solar,2025-05-26,2025-06-27,-37.6612312,144.9370304,Coolaroo,Hume City,Victoria,3048.0,Australia,"Coolaroo VIC 3048, Australia","Coolaroo, Victoria, Australia"
SRPYNSB7,"CVAS, Clarenza",NSW,2460,0.194,Solar,2025-05-19,2025-06-27,-29.717931,152.9659068,Clarenza,Clarence Valley Council,New South Wales,2460.0,Australia,"74 Centenary Dr, Clarenza NSW 2460, Australia","CVAS, Clarenza, New South Wales, Australia"
SRPVWAN5,DMK,WA,6166,0.196,Solar,2025-03-24,2025-06-27,-27.6728168,121.6283098,,,Western Australia,,Australia,"Western Australia, Australia","DMK, Western Australia, Australia"
SRPYNSC2,Macathur Square,NSW,2560,4.542,Solar,2025-05-22,2025-06-27,-34.0748527,150.7979477,Campbelltown,City of Campbelltown,New South Wales,2560.0,Australia,"200 Gilchrist Dr, Campbelltown NSW 2560, Australia","Macathur Square, New South Wales, Australia"
SRPYNSB5,Powerhouse Museum,NSW,2154,0.801,Solar,2025-05-14,2025-06-27,-33.878518,151.1995418,Ultimo,Council of the City of Sydney,New South Wales,2007.0,Australia,"500 Harris St, Ultimo NSW 2007, Australia","Powerhouse Museum, New South Wales, Australia"
SRPVWAL5,Region Group Kwinana 1,WA,6167,1.191,Solar,2025-03-06,2025-06-27,-32.2320792,115.7787256,Kwinana Beach,City of Kwinana,Western Australia,6167.0,Australia,"Kwinana Beach WA 6167, Australia","Region Group Kwinana 1, Western Australia, Australia"
SRPYNS98,Riverwood CCP,NSW,2210,0.126,Solar,2025-04-23,2025-06-27,-33.94538,151.0534022,Riverwood,,New South Wales,2210.0,Australia,"Riverwood NSW 2210, Australia","Riverwood CCP, New South Wales, Australia"
SRPYNSD2,Sydney City Toyota Waterloo,NSW,2017,0.454,Solar,2025-06-11,2025-06-27,-33.8998657,151.2108116,Waterloo,Council of the City of Sydney,New South Wales,2017.0,Australia,"824 Bourke St, Waterloo NSW 2017, Australia","Sydney City Toyota Waterloo, New South Wales, Australia"
SRPXVCQ7,Timberjack 10 International Square,VIC,3043,0.236,Solar,2025-04-07,2025-06-27,-37.6950384,144.8696538,Tullamarine,Hume City,Victoria,3043.0,Australia,"10 International Square, Tullamarine VIC 3043, Australia","Timberjack 10 International Square, Victoria, Australia"
SRPXVCQ8,Timberjack 11 International Square,VIC,3043,0.173,Solar,2025-04-07,2025-06-27,-37.6950519,144.8706294,Tullamarine,Hume City,Victoria,3043.0,Australia,"11 International Square, Tullamarine VIC 3043, Australia","Timberjack 11 International Square, Victoria, Australia"
SRPXVCQ6,Timberjack Bliss Court Derrimut,VIC,3026,0.62,Solar,2025-04-07,2025-06-27,-37.8022288,144.7811265,Derrimut,Brimbank City,Victoria,3026.0,Australia,"Bliss Ct, Derrimut VIC 3026, Australia","Timberjack Bliss Court Derrimut, Victoria, Australia"
SRPXVCR3,Uppal Produce,VIC,3616,0.15,Solar,2025-05-14,2025-06-27,-36.4459892,145.2917087,Tatura East,Greater Shepparton City,Victoria,3616.0,Australia,"470 Downer Rd, Tatura East VIC 3616, Australia","Uppal Produce, Victoria, Australia"
SRPXQLH9,Koorelah Farms,QLD,4805,0.406,Solar,2025-03-03,2025-06-30,-19.9871737,148.2173483,Bowen,Whitsunday Regional,Queensland,4805.0,Australia,"37 Inveroona Rd, Bowen QLD 4805, Australia","Koorelah Farms, Queensland, Australia"
SRPYNSC9,Woolworths Norwest Circa 1422,NSW,2153,0.3,Solar,2025-06-03,2025-06-30,-33.7316522,150.9665906,Norwest,The Hills Shire Council,New South Wales,2153.0,Australia,"Norwest NSW 2153, Australia","Woolworths Norwest Circa 1422, New South Wales, Australia"
SRPVWAN9,Ashburton Aboriginal Corporation,WA,6751,0.727,Solar,2025-05-01,2025-07-01,-31.98041649999999,115.9597801,Kewdale,City of Belmont,Western Australia,6105.0,Australia,"unit 8/524 Abernethy Rd, Kewdale WA 6105, Australia","Ashburton Aboriginal Corporation, Western Australia, Australia"
SRPXVCS0,Bunnings Nunawading,VIC,3131,0.26,Solar,2025-06-17,2025-07-01,-37.8192782,145.1668845,Nunawading,Whitehorse City,Victoria,3131.0,Australia,"250 Whitehorse Rd, Nunawading VIC 3131, Australia","Bunnings Nunawading, Victoria, Australia"
BEBGNS40,Eastern Creek,NSW,2766,4.268,Landfill Gas,2025-05-22,2025-07-01,-33.8102184,150.85064,Eastern Creek,City of Blacktown,New South Wales,2766.0,Australia,"Eastern Creek NSW 2766, Australia","Eastern Creek, New South Wales, Australia"
SRPYNSC0,Gunnedah 2A Solar Farm,NSW,2380,6.048,Solar,2025-05-21,2025-07-01,-30.97943189999999,150.2565037,Gunnedah,Gunnedah Shire Council,New South Wales,2380.0,Australia,"Gunnedah NSW 2380, Australia","Gunnedah 2A Solar Farm, New South Wales, Australia"
SRPXQLK3,Hemmant 1+3 Lineage Logistics,QLD,4174,1.518,Solar,2025-06-03,2025-07-01,-27.4455473,153.1258815,Hemmant,Brisbane City,Queensland,,Australia,"Hemmant QLD, Australia","Hemmant 1+3 Lineage Logistics, Queensland, Australia"
SRPYNSD4,Raymond Terrace,NSW,2324,0.222,Solar,2025-06-12,2025-07-01,-32.7573408,151.748173,Raymond Terrace,Port Stephens Council,New South Wales,2324.0,Australia,"Raymond Terrace NSW 2324, Australia","Raymond Terrace, New South Wales, Australia"
SRPYNSC8,Scalabrini Griffith,NSW,2680,0.22,Solar,2025-06-03,2025-07-01,-34.3007412,146.0772835,Griffith,Griffith City Council,New South Wales,2680.0,Australia,"650 Oakes Rd Yoogali via, Griffith NSW 2680, Australia","Scalabrini Griffith, New South Wales, Australia"
WD00QL10,Wambo Wind Farm Stage 1,QLD,4410,252.0,Wind,2025-06-11,2025-07-01,-26.6361785,151.2697887,Diamondy,Western Downs Regional,Queensland,4410.0,Australia,"Diamondy QLD 4410, Australia","Wambo Wind Farm Stage 1, Queensland, Australia"
SRPYNSD3,Woolworths Merimbula 1250,NSW,2548,0.366,Solar,2025-06-16,2025-07-01,-36.8880702,149.9062981,Merimbula,Bega Valley Shire Council,New South Wales,2548.0,Australia,"Merimbula NSW 2548, Australia","Woolworths Merimbula 1250, New South Wales, Australia"
SRPXSA04,SH LEASEHOLD PTY LTD,SA,5096,0.198,Solar,2025-06-20,2025-07-02,-30.0002315,136.2091547,,,South Australia,,Australia,"South Australia, Australia","SH LEASEHOLD PTY LTD, South Australia, Australia"
SRPYNS87,GPE_DB Santasalo,NSW,2516,0.532,Solar,2025-03-20,2025-07-03,-31.2532183,146.921099,,,New South Wales,,Australia,"New South Wales, Australia","GPE_DB Santasalo, New South Wales, Australia"
BEBMWA04,Kwinana WTE,WA,6167,42.0,Biomass-Based Components of Municipal Solid Waste,2025-03-27,2025-07-03,-32.2320792,115.7787256,Kwinana Beach,City of Kwinana,Western Australia,6167.0,Australia,"Kwinana Beach WA 6167, Australia","Kwinana WTE, Western Australia, Australia"
SRPYNSB4,Murrumbidgee,NSW,2716,7.125,Solar,2025-05-16,2025-07-03,-34.6513496,145.7578403,,Murrumbidgee Council,New South Wales,,Australia,"Murrumbidgee, NSW, Australia","Murrumbidgee, New South Wales, Australia"
SRPYNSD5,PCCS,NSW,2486,0.18,Solar,2025-06-12,2025-07-03,-31.2532183,146.921099,,,New South Wales,,Australia,"New South Wales, Australia","PCCS, New South Wales, Australia"
SRPVWAO0,Region Group Kwinana 2,WA,6167,1.19,Solar,2025-03-06,2025-07-03,-32.2320792,115.7787256,Kwinana Beach,City of Kwinana,Western Australia,6167.0,Australia,"Kwinana Beach WA 6167, Australia","Region Group Kwinana 2, Western Australia, Australia"
SRPXVCS6,Bunnings Mentone,VIC,3194,0.18,Solar,2025-06-25,2025-07-09,-37.976882,145.069535,Mentone,City of Kingston,Victoria,3194.0,Australia,"23-27 Nepean Hwy, Mentone VIC 3194, Australia","Bunnings Mentone, Victoria, Australia"
SRPYNSF1,Equinex SY9,NSW,2142,0.49,Solar,2025-06-23,2025-07-09,-31.2532183,146.921099,,,New South Wales,,Australia,"New South Wales, Australia","Equinex SY9, New South Wales, Australia"
SRPXVCS4,HomeCo Braybrook,VIC,3019,0.14,Solar,2025-06-23,2025-07-09,-37.7781337,144.8509028,Braybrook,Maribyrnong City,Victoria,3019.0,Australia,"330 Ballarat Rd, Braybrook VIC 3019, Australia","HomeCo Braybrook, Victoria, Australia"
SRPXQLK7,HomeCo Bundall,QLD,4217,0.33,Solar,2025-06-23,2025-07-09,-28.0053912,153.412885,Bundall,City of Gold Coast,Queensland,4217.0,Australia,"100 Bundall Rd, Bundall QLD 4217, Australia","HomeCo Bundall, Queensland, Australia"
SRPXQLL0,Bunnings Lawnton,QLD,4501,0.16,Solar,2025-06-26,2025-07-10,-27.288078,152.9853359,Lawnton,City of Moreton Bay,Queensland,4501.0,Australia,"727 Gympie Rd, Lawnton QLD 4501, Australia","Bunnings Lawnton, Queensland, Australia"
SRPXQLJ8,Omya Bajool,QLD,4699,0.546,Solar,2025-05-09,2025-07-10,-23.8102576,150.6475451,Bajool,Rockhampton Regional,Queensland,4699.0,Australia,"1911 S Ulam Rd, Bajool QLD 4699, Australia","Omya Bajool, Queensland, Australia"
SRPYNSD7,Bunnings Alexandria,NSW,2015,0.456,Solar,2025-06-20,2025-07-14,-33.9057744,151.1936904,Alexandria,Council of the City of Sydney,New South Wales,2015.0,Australia,"8/40 Euston Rd, Alexandria NSW 2015, Australia","Bunnings Alexandria, New South Wales, Australia"
SRPYNSD1,"Chisholm Rd, Auburn",NSW,2144,0.207,Solar,2025-06-06,2025-07-14,-33.8637456,151.0185357,Auburn,,New South Wales,2144.0,Australia,"Chisholm Rd, Auburn NSW 2144, Australia","Chisholm Rd, Auburn, New South Wales, Australia"
SRPXQLK9,Hillwood Berries,QLD,4670,0.268,Solar,2025-06-16,2025-07-14,-24.745633,152.158959,Avondale,Bundaberg Regional,Queensland,4670.0,Australia,"225/239 Avondale Rd, Avondale QLD 4670, Australia","Hillwood Berries, Queensland, Australia"
SRPXVCS9,Bunnings Hoppers Crossing,VIC,3029,0.18,Solar,2025-06-30,2025-07-17,-37.875053,144.7132612,Hoppers Crossing,Wyndham City,Victoria,3029.0,Australia,"221-231 Old Geelong Rd, Hoppers Crossing VIC 3029, Australia","Bunnings Hoppers Crossing, Victoria, Australia"
SRPYNSC7,Energy Bay,NSW,2179,0.439,Solar,2025-05-29,2025-07-17,-33.8658285,151.2122067,Sydney,Council of the City of Sydney,New South Wales,2000.0,Australia,"Level 16/167 Macquarie St, Sydney NSW 2000, Australia","Energy Bay, New South Wales, Australia"
SRPXVCT1,GPE SURYA ENTERPRISES GOLD COAST,VIC,3925,0.199,Solar,2025-07-02,2025-07-17,-27.9769248,153.380936,Gold Coast,,Queensland,,Australia,"Gold Coast QLD, Australia","GPE SURYA ENTERPRISES GOLD COAST, Victoria, Australia"
SRPXVCH2,Greentech 7 Solar Farm & BESS,VIC,3380,8.507,Solar,2025-02-12,2025-07-17,-36.9847807,143.3906074,,,Victoria,,Australia,"Victoria, Australia","Greentech 7 Solar Farm & BESS, Victoria, Australia"
SRPXVCR9,Minter Magic Packing Shed Iraak,VIC,3494,0.2,Solar,2025-05-27,2025-07-17,-34.4119394,142.3077203,Iraak,Mildura Rural City,Victoria,3494.0,Australia,"45 Hards Ln, Iraak VIC 3494, Australia","Minter Magic Packing Shed Iraak, Victoria, Australia"
SRPYNSF4,Seventh,NSW,2147,0.154,Solar,2025-06-30,2025-07-17,-31.2532183,146.921099,,,New South Wales,,Australia,"New South Wales, Australia","Seventh, New South Wales, Australia"
SRPVWAO4,Treeby Parklands Care Community,WA,6164,0.23,Solar,2025-07-02,2025-07-17,-32.1217002,115.8786468,Treeby,City of Cockburn,Western Australia,6164.0,Australia,"5 Abelia Rd, Treeby WA 6164, Australia","Treeby Parklands Care Community, Western Australia, Australia"
SRPXVCT0,Western Port Bay Care Community,VIC,3913,0.2,Solar,2025-07-01,2025-07-17,-38.263925,145.193554,Tyabb,Mornington Peninsula Shire,Victoria,3913.0,Australia,"30 The Crescent, Tyabb VIC 3913, Australia","Western Port Bay Care Community, Victoria, Australia"
SRPXVCS8,Bunnings Ballarat,VIC,3350,0.18,Solar,2025-06-26,2025-07-18,-37.5515143,143.8526854,Ballarat Central,City of Ballarat,Victoria,3350.0,Australia,"306/312 Creswick Rd, Ballarat Central VIC 3350, Australia","Bunnings Ballarat, Victoria, Australia"
SRPYNSD9,Goodman AU702 Axle West,NSW,2766,0.655,Solar,2025-06-20,2025-07-18,-31.2532183,146.921099,,,New South Wales,,Australia,"New South Wales, Australia","Goodman AU702 Axle West, New South Wales, Australia"
SRPXQLK4,Pillow Talk Darra – Solar wSGU – Qld,QLD,4076,0.4,Solar,2025-06-10,2025-07-18,-27.5644875,152.9621083,Darra,Brisbane City,Queensland,4076.0,Australia,"25 Kiln St, Darra QLD 4076, Australia","Pillow Talk Darra – Solar wSGU – Qld, Queensland, Australia"
SRPVWAO5,SOC Osborne Park,WA,6017,0.3,Solar,2025-07-07,2025-07-18,-31.903217,115.8185354,Osborne Park,City of Stirling,Western Australia,6017.0,Australia,"Osborne Park WA 6017, Australia","SOC Osborne Park, Western Australia, Australia"
SRPYNS49,Temora 1C Solar Farm,NSW,2666,6.121,Solar,2025-03-20,2025-07-18,-34.4468114,147.533896,Temora,Temora Shire Council,New South Wales,2666.0,Australia,"Temora NSW 2666, Australia","Temora 1C Solar Farm, New South Wales, Australia"
SRPXQLL6,Harvey Norman Maroochydore Homemaker,QLD,4558,0.454,Solar,2025-07-11,2025-07-21,-26.6604162,153.0839286,Maroochydore,Sunshine Coast Regional,Queensland,4558.0,Australia,"55 Maroochy Blvd, Maroochydore QLD 4558, Australia","Harvey Norman Maroochydore Homemaker, Queensland, Australia"
SRPVTA27,Spreyton,TAS,7310,0.174,Solar,2025-07-08,2025-07-21,-41.2175876,146.3450276,Spreyton,,Tasmania,7310.0,Australia,"Spreyton TAS 7310, Australia","Spreyton, Tasmania, Australia"
SRPYNSA2,AU254 M7 BH,NSW,2766,0.438,Solar,2025-05-09,2025-07-23,-33.8378399,150.8562268,,,New South Wales,,Australia,"M7, New South Wales, Australia","AU254 M7 BH, New South Wales, Australia"
SRPXQLL2,House Power North Maroochydore Homemaker,QLD,4558,0.203,Solar,2025-07-11,2025-07-23,-26.4786425637165,152.9522215223456,,Sunshine Coast Regional,Queensland,,Australia,"North Maroochy River, Queensland, Australia","House Power North Maroochydore Homemaker, Queensland, Australia"
SRPXQLL3,House Power South Maroochydore Homemaker,QLD,4558,0.187,Solar,2025-07-11,2025-07-23,-26.6602963,153.0837537,Maroochydore,Sunshine Coast Regional,Queensland,4558.0,Australia,"Level 1/55 Maroochy Blvd, Maroochydore QLD 4558, Australia","House Power South Maroochydore Homemaker, Queensland, Australia"
SRPYNS80,Culcairn Solar Farm,NSW,2660,439.869,Solar,2025-06-26,2025-07-25,-35.7095923,146.9817606,Culcairn,Greater Hume Shire Council,New South Wales,2660.0,Australia,"Weeamera Rd, Culcairn NSW 2660, Australia","Culcairn Solar Farm, New South Wales, Australia"
SRPXQLL5,Domayne Maroochydore Homemaker,QLD,4558,0.203,Solar,2025-07-11,2025-07-25,-26.6602963,153.0837537,Maroochydore,Sunshine Coast Regional,Queensland,4558.0,Australia,"11, 14/11/55 Maroochy Blvd, Maroochydore QLD 4558, Australia","Domayne Maroochydore Homemaker, Queensland, Australia"
SRPXVCS2,GRAC,VIC,3844,0.305,Solar,2025-06-25,2025-07-25,-38.1949119,146.5324249,Traralgon,Latrobe City,Victoria,3844.0,Australia,"49 Breed St, Traralgon VIC 3844, Australia","GRAC, Victoria, Australia"
SRPXVCR8,Greenlink 6,VIC,3977,0.439,Solar,2025-06-06,2025-07-25,-36.9847807,143.3906074,,,Victoria,,Australia,"Victoria, Australia","Greenlink 6, Victoria, Australia"
SRPXVCR5,HomeCo Hawthorn East,VIC,3123,0.2,Solar,2025-05-26,2025-07-25,-37.8456763,145.0418097,Hawthorn East,Boroondara City,Victoria,3123.0,Australia,"742 Toorak Rd, Hawthorn East VIC 3123, Australia","HomeCo Hawthorn East, Victoria, Australia"
SRPXQLL4,Joyce Mayne Maroochydore Homemaker,QLD,4558,0.187,Solar,2025-07-11,2025-07-25,-26.6602963,153.0837537,Maroochydore,Sunshine Coast Regional,Queensland,4558.0,Australia,"Level 1/55 Maroochy Blvd, Maroochydore QLD 4558, Australia","Joyce Mayne Maroochydore Homemaker, Queensland, Australia"
SRPVSAZ9,Morgan Sawmill Dublin,SA,5501,0.705,Solar,2025-05-12,2025-07-25,-34.4756096,138.391561,Dublin,Adelaide Plains Council,South Australia,5501.0,Australia,"108 Carslake Rd, Dublin SA 5501, Australia","Morgan Sawmill Dublin, South Australia, Australia"
SRPXVCS5,Nhill Renewable Energy Facility,VIC,3418,6.512,Solar,2025-07-03,2025-07-25,-36.33278,141.6503408,Nhill,Hindmarsh Shire,Victoria,3418.0,Australia,"Nhill VIC 3418, Australia","Nhill Renewable Energy Facility, Victoria, Australia"
SRPYNSF5,Woolworths Eagle Vale 1091,NSW,2558,0.338,Solar,2025-07-08,2025-07-25,-34.0386678,150.8131919,Eagle Vale,City of Campbelltown,New South Wales,2558.0,Australia,"Eagle Vale NSW 2558, Australia","Woolworths Eagle Vale 1091, New South Wales, Australia"
SRPXSA06,Greenacres Joint Venture,SA,5086,0.245,Solar,2025-07-09,2025-07-31,-34.8695296,138.6278607,Greenacres,City of Port Adelaide Enfield,South Australia,5086.0,Australia,"Greenacres SA 5086, Australia","Greenacres Joint Venture, South Australia, Australia"
SRPYNSC3,Moorebank,NSW,2170,1.731,Solar,2025-05-23,2025-07-31,-33.9343989,150.9347027,Moorebank,Liverpool City Council,New South Wales,2170.0,Australia,"Moorebank NSW 2170, Australia","Moorebank, New South Wales, Australia"
SRPYNSF3,Redmud Green Energy 197 Pty Ltd,NSW,2386,6.519,Solar,2025-07-15,2025-07-31,-31.2532183,146.921099,,,New South Wales,,Australia,"New South Wales, Australia","Redmud Green Energy 197 Pty Ltd, New South Wales, Australia"
SRPYNSE0,Stanhope Leisure Centre,NSW,2768,0.35,Solar,2025-07-25,2025-07-31,-33.7195019,150.9213557,Stanhope Gardens,City of Blacktown,New South Wales,2768.0,Australia,"Stanhope Pkwy &, Sentry Dr, Stanhope Gardens NSW 2768, Australia","Stanhope Leisure Centre, New South Wales, Australia"
SRPVTA26,UA Mornington,TAS,7018,0.21,Solar,2025-06-24,2025-07-31,-42.85833299999999,147.403889,Mornington,Clarence City Council,Tasmania,7018.0,Australia,"Mornington TAS 7018, Australia","UA Mornington, Tasmania, Australia"
SRPXVCT3,Harvey Norman Warragul,VIC,3820,0.336,Solar,2025-07-18,2025-08-01,-38.1673098,145.9510755,Warragul,Baw Baw Shire,Victoria,3820.0,Australia,"219 Queen St, Warragul VIC 3820, Australia","Harvey Norman Warragul, Victoria, Australia"
SRPYNSD8,Goodman AU079 Greystanes Laminex,NSW,2145,0.4,Solar,2025-06-20,2025-08-04,-33.8244561,150.9488196,Greystanes,Cumberland City Council,New South Wales,2145.0,Australia,"Greystanes NSW 2145, Australia","Goodman AU079 Greystanes Laminex, New South Wales, Australia"
SRPXQLL1,DW Coomera,QLD,4209,0.709,Solar,2025-07-02,2025-08-05,-27.846439,153.343953,Coomera,City of Gold Coast,Queensland,,Australia,"Coomera QLD, Australia","DW Coomera, Queensland, Australia"
SRPXQLK6,Mackay Christian College Senior Campus,QLD,4740,0.29,Solar,2025-06-23,2025-08-05,-21.1424956,149.1821469,Mackay,,Queensland,,Australia,"Mackay QLD, Australia","Mackay Christian College Senior Campus, Queensland, Australia"
SRPYNSF7,Team Medical Supplies,NSW,2147,0.207,Solar,2025-07-10,2025-08-05,-31.2532183,146.921099,,,New South Wales,,Australia,"New South Wales, Australia","Team Medical Supplies, New South Wales, Australia"
SRPXQLM0,Americold Hemmant 3,QLD,4174,0.524,Solar,2025-07-28,2025-08-07,-27.4445601,153.1170123,Hemmant,Brisbane City,Queensland,4174.0,Australia,"1217 Lytton Rd, Hemmant QLD 4174, Australia","Americold Hemmant 3, Queensland, Australia"
SRPXQLL7,Brothers Sports Club,QLD,4670,0.292,Solar,2025-07-08,2025-08-07,-24.89116,152.3189313,Kensington,Bundaberg Regional,Queensland,4670.0,Australia,"130 Takalvan St, Kensington QLD 4670, Australia","Brothers Sports Club, Queensland, Australia"
SRPYNS96,Dungog WTP,NSW,2420,0.301,Solar,2025-07-08,2025-08-08,-32.4087375,151.7419586,Dungog,Dungog Shire Council,New South Wales,2420.0,Australia,"65 Short St, Dungog NSW 2420, Australia","Dungog WTP, New South Wales, Australia"
SRPYNSB9,Wollongong WRRF,NSW,2505,0.246,Solar,2025-05-23,2025-08-08,-34.4846167,150.8866852,Warrawong,Wollongong City Council,New South Wales,2502.0,Australia,"9 Greene St, Warrawong NSW 2502, Australia","Wollongong WRRF, New South Wales, Australia"
SRPYNSF6,Canally Microgrid,NSW,2715,6.567,Solar,2025-08-04,2025-08-14,-34.734699,143.352402,Balranald,Balranald Shire Council,New South Wales,2715.0,Australia,"Canally, Balranald NSW 2715, Australia","Canally Microgrid, New South Wales, Australia"
SRPYNSE4,Coffs Harbour Grange Care Community,NSW,2450,0.189,Solar,2025-07-29,2025-08-14,-30.3063396,153.0924204,Coffs Harbour,Coffs Harbour City Council,New South Wales,2450.0,Australia,"50 Lakes Dr, Coffs Harbour NSW 2450, Australia","Coffs Harbour Grange Care Community, New South Wales, Australia"
SRPXSA03,Munno Para Foodland,SA,5114,1.18,Solar,2025-06-18,2025-08-14,-34.68780539999999,138.687965,Smithfield,City of Playford,South Australia,5114.0,Australia,"600 Main N Rd, Smithfield SA 5114, Australia","Munno Para Foodland, South Australia, Australia"
SRPYNSD6,Tronox,NSW,2715,10.713,Solar,2025-07-12,2025-08-14,-31.2532183,146.921099,,,New South Wales,,Australia,"New South Wales, Australia","Tronox, New South Wales, Australia"
SRPYNSB8,Elements of Byron,NSW,2481,0.837,Solar,2025-05-20,2025-08-19,-28.6258964,153.5869699,Byron Bay,Byron Shire Council,New South Wales,2481.0,Australia,"144 Bayshore Dr, Byron Bay NSW 2481, Australia","Elements of Byron, New South Wales, Australia"
SRPXQLL8,FABCOT Chermside,QLD,4032,0.254,Solar,2025-07-14,2025-08-19,-27.3858322,153.0310009,Chermside,Brisbane City,Queensland,,Australia,"Chermside QLD, Australia","FABCOT Chermside, Queensland, Australia"
SRPXVCQ9,Altona Inlet Pump Station,VIC,3018,0.226,Solar,2025-04-16,2025-08-26,-37.8645245,144.8309509,Altona,Hobsons Bay City,Victoria,3018.0,Australia,"Altona VIC 3018, Australia","Altona Inlet Pump Station, Victoria, Australia"
SRPXVCS3,Bunnings Keysborough,VIC,3173,0.2,Solar,2025-06-24,2025-08-26,-37.9898832,145.1469757,Keysborough,Greater Dandenong City,Victoria,3173.0,Australia,"Cheltenham Rd &, Springvale Rd, Keysborough VIC 3173, Australia","Bunnings Keysborough, Victoria, Australia"
SRPXQLM4,Ignatius Park College,QLD,4814,0.29,Solar,2025-08-04,2025-08-26,-19.3001636,146.7589341,Cranbrook,Townsville City,Queensland,4814.0,Australia,"384 Ross River Rd, Cranbrook QLD 4814, Australia","Ignatius Park College, Queensland, Australia"
SRPXVCT9,Ambassador Industrial Pty Ltd,VIC,3803,0.257,Solar,2025-07-25,2025-08-27,-38.0150051,145.2622939,Hallam,Casey City,Victoria,3803.0,Australia,"7-9 Westpool Dr, Hallam VIC 3803, Australia","Ambassador Industrial Pty Ltd, Victoria, Australia"
SRPXVCT4,Dexus Dulux Dandenong,VIC,3175,0.226,Solar,2025-07-25,2025-08-27,-37.9847811,145.2139907,Dandenong,Greater Dandenong City,Victoria,3175.0,Australia,"Dandenong VIC 3175, Australia","Dexus Dulux Dandenong, Victoria, Australia"
SRPXQLM3,Harbourside Townsville,QLD,4810,0.779,Solar,2025-08-04,2025-08-27,-19.2687693,146.8333644,South Townsville,Townsville City,Queensland,4810.0,Australia,"296/300 Boundary St, South Townsville QLD 4810, Australia","Harbourside Townsville, Queensland, Australia"
SRPXQLM2,KQF Newheath Dr,QLD,4214,0.536,Solar,2025-07-30,2025-08-27,-27.9459382,153.3427432,Arundel,City of Gold Coast,Queensland,4214.0,Australia,"Newheath Dr, Arundel QLD 4214, Australia","KQF Newheath Dr, Queensland, Australia"
SRPXVCT7,Liuzzi 25 Eton St,VIC,3072,0.275,Solar,2025-07-21,2025-08-27,-37.7451184,145.0243861,Preston,Darebin City,Victoria,3072.0,Australia,"25 Eton St, Preston VIC 3072, Australia","Liuzzi 25 Eton St, Victoria, Australia"
SRPXVCT8,Liuzzi 71 Gower St,VIC,3072,0.4,Solar,2025-07-21,2025-08-27,-37.743696,145.0246844,Preston,Darebin City,Victoria,3072.0,Australia,"71 Gower St, Preston VIC 3072, Australia","Liuzzi 71 Gower St, Victoria, Australia"
SRPXQLM5,Mercy Community,QLD,4014,0.853,Solar,2025-08-04,2025-08-27,-27.3643436,153.0946502,Nudgee,Brisbane City,Queensland,4014.0,Australia,"131 Queens Rd, Nudgee QLD 4014, Australia","Mercy Community, Queensland, Australia"
SRPXVCP9,Norther Airfield,VIC,3045,11.278,Solar,2025-06-01,2025-08-27,-36.9847807,143.3906074,,,Victoria,,Australia,"Victoria, Australia","Norther Airfield, Victoria, Australia"
SRPVWAN8,Rose Farms,WA,6220,0.2,Solar,2025-08-04,2025-08-27,-27.6728168,121.6283098,,,Western Australia,,Australia,"Western Australia, Australia","Rose Farms, Western Australia, Australia"
SRPYNSE3,Suprima Bakeries Pty Ltd,NSW,2566,0.751,Solar,2025-07-23,2025-08-27,-34.0408771,150.8397467,Minto,City of Campbelltown,New South Wales,2566.0,Australia,"1 Magnum Pl, Minto NSW 2566, Australia","Suprima Bakeries Pty Ltd, New South Wales, Australia"
